{"class":"VERSION","release":"3.16","rev":"3.16","proto_major":3,"proto_minor":11}
{"class":"DEVICES","devices":[{"class":"DEVICE","path":"/dev/ttyUSB0","activated":"2016-12-06T15:42:36.554Z","native":0,"bps":9600,"parity":"N","stopbits":1,"cycle":1.00}]}
{"class":"WATCH","enable":true,"json":true,"nmea":false,"raw":0,"scaled":false,"timing":false,"split24":false,"pps":false}
{"class":"DEVICE","path":"/dev/ttyUSB0","driver":"NMEA0183","activated":"2016-12-06T15:42:37.006Z","native":0,"bps":9600,"parity":"N","stopbits":1,"cycle":1.00}
{"class":"TPV","device":"/dev/ttyUSB0","mode":1}
{"class":"TPV","device":"/dev/ttyUSB0","mode":1}
{"class":"TPV","device":"/dev/ttyUSB0","mode":1}
{"class":"TPV","device":"/dev/ttyUSB0","mode":1}
{"class":"TPV","device":"/dev/ttyUSB0","mode":1}
{"class":"TPV","device":"/dev/ttyUSB0","mode":1}
{"class":"TPV","device":"/dev/ttyUSB0","mode":1}
{"class":"TPV","device":"/dev/ttyUSB0","mode":1}
{"class":"TPV","device":"/dev/ttyUSB0","mode":1}
{"class":"TPV","device":"/dev/ttyUSB0","mode":1}
{"class":"TPV","device":"/dev/ttyUSB0","mode":1}
{"class":"TPV","device":"/dev/ttyUSB0","mode":1}
{"class":"TPV","device":"/dev/ttyUSB0","mode":1}
{"class":"TPV","device":"/dev/ttyUSB0","mode":1}
{"class":"TPV","device":"/dev/ttyUSB0","mode":1}
{"class":"TPV","device":"/dev/ttyUSB0","mode":1}
{"class":"TPV","device":"/dev/ttyUSB0","mode":1}
{"class":"TPV","device":"/dev/ttyUSB0","mode":1}
{"class":"TPV","device":"/dev/ttyUSB0","mode":1}
{"class":"TPV","device":"/dev/ttyUSB0","mode":1}
{"class":"TPV","device":"/dev/ttyUSB0","mode":1}
{"class":"TPV","device":"/dev/ttyUSB0","mode":1}
{"class":"TPV","device":"/dev/ttyUSB0","mode":1}
{"class":"TPV","device":"/dev/ttyUSB0","mode":1}
{"class":"TPV","device":"/dev/ttyUSB0","mode":1}
{"class":"TPV","device":"/dev/ttyUSB0","mode":3,"lat":47.421740000,"lon":-122.251986667,"alt":3.400}
{"class":"TPV","device":"/dev/ttyUSB0","mode":3,"lat":47.421740000,"lon":-122.251986667,"alt":3.400,"epv":20.700}
{"class":"TPV","device":"/dev/ttyUSB0","mode":3,"time":"2016-12-07T01:58:20.093Z","ept":0.005,"lat":47.421740000,"lon":-122.251986667,"alt":3.400,"epv":20.700,"track":81.1100,"speed":0.021}
{"class":"TPV","device":"/dev/ttyUSB0","mode":3,"time":"2016-12-07T01:58:22.000Z","ept":0.005,"lat":47.421753333,"lon":-122.251980000,"alt":4.400,"epv":20.700,"track":311.4200,"speed":0.134,"climb":0.524,"epc":21.71}
{"class":"TPV","device":"/dev/ttyUSB0","mode":3,"time":"2016-12-07T01:58:23.000Z","ept":0.005,"lat":47.421756667,"lon":-122.251983333,"alt":5.900,"epv":20.700,"track":198.4400,"speed":0.715,"climb":1.500,"epc":41.40}
{"class":"SKY","device":"/dev/ttyUSB0","xdop":0.81,"ydop":1.41,"vdop":0.90,"tdop":1.60,"hdop":1.40,"gdop":3.10,"pdop":1.67,"satellites":[{"PRN":23,"el":80,"az":81,"ss":42,"used":true},{"PRN":9,"el":57,"az":300,"ss":49,"used":true},{"PRN":16,"el":51,"az":92,"ss":42,"used":true},{"PRN":26,"el":35,"az":56,"ss":36,"used":true},{"PRN":135,"el":34,"az":194,"ss":43,"used":false},{"PRN":7,"el":33,"az":243,"ss":42,"used":true},{"PRN":2,"el":9,"az":317,"ss":36,"used":true},{"PRN":22,"el":0,"az":0,"ss":37,"used":false},{"PRN":3,"el":0,"az":0,"ss":41,"used":false}]}
{"class":"TPV","device":"/dev/ttyUSB0","mode":3,"time":"2016-12-07T01:58:24.000Z","ept":0.005,"lat":47.421751667,"lon":-122.251985000,"alt":6.400,"epx":12.172,"epy":21.206,"epv":20.700,"track":140.3200,"speed":0.021,"climb":0.500,"epc":41.40}
{"class":"TPV","device":"/dev/ttyUSB0","mode":3,"time":"2016-12-07T01:58:25.000Z","ept":0.005,"lat":47.421758333,"lon":-122.251981667,"alt":6.200,"epx":12.172,"epy":21.206,"epv":20.700,"track":94.1300,"speed":0.005,"climb":-0.200,"eps":42.41,"epc":41.40}
{"class":"TPV","device":"/dev/ttyUSB0","mode":3,"time":"2016-12-07T01:58:26.000Z","ept":0.005,"lat":47.421815000,"lon":-122.251965000,"alt":12.200,"epx":12.172,"epy":21.206,"epv":20.700,"track":201.1900,"speed":0.005,"climb":6.000,"eps":42.41,"epc":41.40}
{"class":"TPV","device":"/dev/ttyUSB0","mode":3,"time":"2016-12-07T01:58:27.000Z","ept":0.005,"lat":47.421818333,"lon":-122.251965000,"alt":12.600,"epx":12.172,"epy":21.206,"epv":18.860,"track":161.8300,"speed":0.000,"climb":0.400,"eps":42.41,"epc":39.56}
{"class":"TPV","device":"/dev/ttyUSB0","mode":3,"time":"2016-12-07T01:58:28.000Z","ept":0.005,"lat":47.421820000,"lon":-122.251965000,"alt":12.700,"epx":12.172,"epy":21.206,"epv":18.860,"track":117.5700,"speed":0.000,"climb":0.100,"eps":42.41,"epc":37.72}
{"class":"SKY","device":"/dev/ttyUSB0","xdop":0.81,"ydop":1.41,"vdop":0.82,"tdop":1.60,"hdop":0.95,"gdop":3.10,"pdop":1.26,"satellites":[{"PRN":23,"el":80,"az":81,"ss":42,"used":true},{"PRN":9,"el":57,"az":300,"ss":49,"used":true},{"PRN":16,"el":51,"az":92,"ss":43,"used":true},{"PRN":26,"el":35,"az":56,"ss":36,"used":true},{"PRN":135,"el":34,"az":194,"ss":41,"used":false},{"PRN":7,"el":33,"az":243,"ss":42,"used":true},{"PRN":3,"el":32,"az":175,"ss":41,"used":true},{"PRN":22,"el":18,"az":168,"ss":37,"used":true},{"PRN":2,"el":9,"az":317,"ss":36,"used":true}]}
{"class":"TPV","device":"/dev/ttyUSB0","mode":3,"time":"2016-12-07T01:58:29.000Z","ept":0.005,"lat":47.421820000,"lon":-122.251963333,"alt":12.500,"epx":12.172,"epy":21.206,"epv":18.860,"track":248.5500,"speed":0.005,"climb":-0.200,"eps":42.41,"epc":37.72}
{"class":"TPV","device":"/dev/ttyUSB0","mode":3,"time":"2016-12-07T01:58:30.000Z","ept":0.005,"lat":47.421820000,"lon":-122.251963333,"alt":12.200,"epx":12.172,"epy":21.206,"epv":18.860,"track":37.9100,"speed":0.000,"climb":-0.300,"eps":42.41,"epc":37.72}
{"class":"TPV","device":"/dev/ttyUSB0","mode":3,"time":"2016-12-07T01:58:31.000Z","ept":0.005,"lat":47.421818333,"lon":-122.251965000,"alt":12.300,"epx":12.172,"epy":21.206,"epv":18.860,"track":55.1700,"speed":0.005,"climb":0.100,"eps":42.41,"epc":37.72}
{"class":"TPV","device":"/dev/ttyUSB0","mode":3,"time":"2016-12-07T01:58:32.000Z","ept":0.005,"lat":47.421816667,"lon":-122.251965000,"alt":12.300,"epx":12.172,"epy":21.206,"epv":18.860,"track":0.0000,"speed":0.000,"climb":0.000,"eps":42.41,"epc":37.72}
{"class":"TPV","device":"/dev/ttyUSB0","mode":3,"time":"2016-12-07T01:58:33.000Z","ept":0.005,"lat":47.421816667,"lon":-122.251965000,"alt":11.900,"epx":12.172,"epy":21.206,"epv":18.860,"track":215.3600,"speed":0.005,"climb":-0.400,"eps":42.41,"epc":37.72}
{"class":"SKY","device":"/dev/ttyUSB0","xdop":0.81,"ydop":1.41,"vdop":0.82,"tdop":1.60,"hdop":0.95,"gdop":3.10,"pdop":1.26,"satellites":[{"PRN":23,"el":80,"az":81,"ss":40,"used":true},{"PRN":9,"el":57,"az":300,"ss":49,"used":true},{"PRN":16,"el":51,"az":92,"ss":43,"used":true},{"PRN":26,"el":35,"az":56,"ss":36,"used":true},{"PRN":135,"el":34,"az":194,"ss":41,"used":false},{"PRN":7,"el":33,"az":243,"ss":42,"used":true},{"PRN":3,"el":32,"az":175,"ss":40,"used":true},{"PRN":22,"el":18,"az":168,"ss":36,"used":true},{"PRN":2,"el":9,"az":317,"ss":36,"used":true}]}
{"class":"TPV","device":"/dev/ttyUSB0","mode":3,"time":"2016-12-07T01:58:34.000Z","ept":0.005,"lat":47.421815000,"lon":-122.251965000,"alt":11.800,"epx":12.172,"epy":21.206,"epv":33.350,"track":244.9300,"speed":0.000,"climb":-0.100,"eps":42.41,"epc":52.21}
{"class":"TPV","device":"/dev/ttyUSB0","mode":3,"time":"2016-12-07T01:58:35.000Z","ept":0.005,"lat":47.421813333,"lon":-122.251966667,"alt":12.000,"epx":12.172,"epy":21.206,"epv":18.860,"track":46.1000,"speed":0.005,"climb":0.200,"eps":42.41,"epc":52.21}
{"class":"TPV","device":"/dev/ttyUSB0","mode":3,"time":"2016-12-07T01:58:36.000Z","ept":0.005,"lat":47.421813333,"lon":-122.251966667,"alt":11.800,"epx":12.172,"epy":21.206,"epv":18.860,"track":187.7300,"speed":0.005,"climb":-0.200,"eps":42.41,"epc":37.72}
{"class":"TPV","device":"/dev/ttyUSB0","mode":3,"time":"2016-12-07T01:58:37.000Z","ept":0.005,"lat":47.421813333,"lon":-122.251966667,"alt":11.700,"epx":12.172,"epy":21.206,"epv":18.860,"track":0.0000,"speed":0.000,"climb":-0.100,"eps":42.41,"epc":37.72}
{"class":"TPV","device":"/dev/ttyUSB0","mode":3,"time":"2016-12-07T01:58:38.000Z","ept":0.005,"lat":47.421811667,"lon":-122.251966667,"alt":11.700,"epx":12.172,"epy":21.206,"epv":18.860,"track":113.0500,"speed":0.005,"climb":0.000,"eps":42.41,"epc":37.72}
{"class":"SKY","device":"/dev/ttyUSB0","xdop":0.81,"ydop":1.41,"vdop":0.82,"tdop":1.60,"hdop":0.95,"gdop":3.10,"pdop":1.26,"satellites":[{"PRN":23,"el":80,"az":81,"ss":40,"used":true},{"PRN":9,"el":57,"az":300,"ss":49,"used":true},{"PRN":16,"el":51,"az":92,"ss":41,"used":true},{"PRN":26,"el":35,"az":56,"ss":35,"used":true},{"PRN":135,"el":34,"az":194,"ss":41,"used":false},{"PRN":7,"el":33,"az":243,"ss":41,"used":true},{"PRN":3,"el":32,"az":175,"ss":40,"used":true},{"PRN":22,"el":18,"az":168,"ss":35,"used":true},{"PRN":2,"el":9,"az":317,"ss":36,"used":true}]}
{"class":"TPV","device":"/dev/ttyUSB0","mode":3,"time":"2016-12-07T01:58:39.000Z","ept":0.005,"lat":47.421811667,"lon":-122.251966667,"alt":11.800,"epx":12.172,"epy":21.206,"epv":33.350,"track":333.2300,"speed":0.000,"climb":0.100,"eps":42.41,"epc":52.21}
{"class":"TPV","device":"/dev/ttyUSB0","mode":3,"time":"2016-12-07T01:58:40.000Z","ept":0.005,"lat":47.421810000,"lon":-122.251966667,"alt":11.800,"epx":12.172,"epy":21.206,"epv":18.860,"track":103.0400,"speed":0.005,"climb":0.000,"eps":42.41,"epc":52.21}
{"class":"TPV","device":"/dev/ttyUSB0","mode":3,"time":"2016-12-07T01:58:41.000Z","ept":0.005,"lat":47.421810000,"lon":-122.251966667,"alt":11.900,"epx":12.172,"epy":21.206,"epv":18.860,"track":342.9600,"speed":0.005,"climb":0.100,"eps":42.41,"epc":37.72}
{"class":"TPV","device":"/dev/ttyUSB0","mode":3,"time":"2016-12-07T01:58:42.000Z","ept":0.005,"lat":47.421808333,"lon":-122.251966667,"alt":12.000,"epx":12.172,"epy":21.206,"epv":18.860,"track":177.8400,"speed":0.144,"climb":0.100,"eps":42.41,"epc":37.72}
{"class":"TPV","device":"/dev/ttyUSB0","mode":3,"time":"2016-12-07T01:58:43.000Z","ept":0.005,"lat":47.421803333,"lon":-122.251965000,"alt":12.300,"epx":12.172,"epy":21.206,"epv":18.860,"track":167.8200,"speed":0.674,"climb":0.300,"eps":42.41,"epc":37.72}
{"class":"SKY","device":"/dev/ttyUSB0","xdop":0.81,"ydop":1.41,"vdop":0.82,"tdop":1.60,"hdop":0.95,"gdop":3.10,"pdop":1.26,"satellites":[{"PRN":23,"el":80,"az":82,"ss":42,"used":true},{"PRN":9,"el":57,"az":300,"ss":47,"used":true},{"PRN":16,"el":51,"az":92,"ss":38,"used":true},{"PRN":26,"el":35,"az":56,"ss":39,"used":true},{"PRN":135,"el":34,"az":194,"ss":40,"used":false},{"PRN":7,"el":33,"az":243,"ss":41,"used":true},{"PRN":3,"el":32,"az":175,"ss":41,"used":true},{"PRN":22,"el":18,"az":168,"ss":38,"used":true},{"PRN":2,"el":9,"az":317,"ss":37,"used":true}]}
{"class":"TPV","device":"/dev/ttyUSB0","mode":3,"time":"2016-12-07T01:58:44.000Z","ept":0.005,"lat":47.421795000,"lon":-122.251960000,"alt":12.300,"epx":12.172,"epy":21.206,"epv":18.860,"track":152.1900,"speed":1.703,"climb":0.000,"eps":42.41,"epc":37.72}
{"class":"TPV","device":"/dev/ttyUSB0","mode":3,"time":"2016-12-07T01:58:45.000Z","ept":0.005,"lat":47.421776667,"lon":-122.251940000,"alt":12.500,"epx":12.172,"epy":21.206,"epv":18.860,"track":137.1700,"speed":3.200,"climb":0.200,"eps":42.41,"epc":37.72}
{"class":"TPV","device":"/dev/ttyUSB0","mode":3,"time":"2016-12-07T01:58:46.000Z","ept":0.005,"lat":47.421758333,"lon":-122.251900000,"alt":12.500,"epx":12.172,"epy":21.206,"epv":18.860,"track":118.8800,"speed":4.152,"climb":0.000,"eps":42.41,"epc":37.72}
{"class":"TPV","device":"/dev/ttyUSB0","mode":3,"time":"2016-12-07T01:58:47.000Z","ept":0.005,"lat":47.421746667,"lon":-122.251845000,"alt":12.400,"epx":12.172,"epy":21.206,"epv":33.350,"track":98.4300,"speed":4.573,"climb":-0.100,"eps":42.41,"epc":52.21}
{"class":"TPV","device":"/dev/ttyUSB0","mode":3,"time":"2016-12-07T01:58:48.000Z","ept":0.005,"lat":47.421746667,"lon":-122.251785000,"alt":12.300,"epx":12.172,"epy":21.206,"epv":33.350,"track":87.1000,"speed":4.589,"climb":-0.100,"eps":42.41,"epc":66.70}
{"class":"SKY","device":"/dev/ttyUSB0","xdop":0.81,"ydop":1.41,"vdop":0.82,"tdop":1.60,"hdop":0.95,"gdop":3.10,"pdop":1.26,"satellites":[{"PRN":23,"el":80,"az":82,"ss":42,"used":true},{"PRN":9,"el":57,"az":300,"ss":36,"used":true},{"PRN":16,"el":51,"az":92,"ss":44,"used":true},{"PRN":26,"el":35,"az":56,"ss":41,"used":true},{"PRN":135,"el":34,"az":194,"ss":40,"used":false},{"PRN":7,"el":33,"az":243,"ss":41,"used":true},{"PRN":3,"el":32,"az":175,"ss":39,"used":true},{"PRN":22,"el":18,"az":168,"ss":40,"used":true},{"PRN":2,"el":9,"az":317,"ss":33,"used":true}]}
{"class":"TPV","device":"/dev/ttyUSB0","mode":3,"time":"2016-12-07T01:58:49.000Z","ept":0.005,"lat":47.421748333,"lon":-122.251723333,"alt":12.500,"epx":12.172,"epy":21.206,"epv":33.350,"track":85.3600,"speed":4.573,"climb":0.200,"eps":42.41,"epc":66.70}
{"class":"TPV","device":"/dev/ttyUSB0","mode":3,"time":"2016-12-07T01:58:50.000Z","ept":0.005,"lat":47.421753333,"lon":-122.251661667,"alt":12.600,"epx":12.172,"epy":21.206,"epv":18.860,"track":82.9900,"speed":4.748,"climb":0.100,"eps":42.41,"epc":52.21}
{"class":"TPV","device":"/dev/ttyUSB0","mode":3,"time":"2016-12-07T01:58:51.000Z","ept":0.005,"lat":47.421761667,"lon":-122.251596667,"alt":12.400,"epx":12.172,"epy":21.206,"epv":33.350,"track":81.4800,"speed":5.006,"climb":-0.200,"eps":42.41,"epc":52.21}
{"class":"TPV","device":"/dev/ttyUSB0","mode":3,"time":"2016-12-07T01:58:52.000Z","ept":0.005,"lat":47.421768333,"lon":-122.251530000,"alt":12.200,"epx":12.172,"epy":21.206,"epv":33.350,"track":82.3500,"speed":5.021,"climb":-0.200,"eps":42.41,"epc":66.70}
{"class":"TPV","device":"/dev/ttyUSB0","mode":3,"time":"2016-12-07T01:58:53.000Z","ept":0.005,"lat":47.421775000,"lon":-122.251463333,"alt":12.100,"epx":12.172,"epy":21.206,"epv":33.350,"track":83.6500,"speed":4.939,"climb":-0.100,"eps":42.41,"epc":66.70}
{"class":"SKY","device":"/dev/ttyUSB0","xdop":0.81,"ydop":1.41,"vdop":1.45,"tdop":1.60,"hdop":0.97,"gdop":3.10,"pdop":1.74,"satellites":[{"PRN":23,"el":80,"az":82,"ss":47,"used":true},{"PRN":9,"el":57,"az":300,"ss":36,"used":true},{"PRN":16,"el":51,"az":92,"ss":42,"used":true},{"PRN":26,"el":35,"az":56,"ss":43,"used":true},{"PRN":135,"el":34,"az":194,"ss":39,"used":false},{"PRN":7,"el":33,"az":243,"ss":42,"used":true},{"PRN":3,"el":32,"az":175,"ss":37,"used":true},{"PRN":22,"el":18,"az":168,"ss":43,"used":true},{"PRN":2,"el":9,"az":317,"ss":27,"used":true},{"PRN":6,"el":0,"az":0,"ss":29,"used":false}]}
{"class":"TPV","device":"/dev/ttyUSB0","mode":3,"time":"2016-12-07T01:58:54.000Z","ept":0.005,"lat":47.421778333,"lon":-122.251403333,"alt":11.900,"epx":12.172,"epy":21.206,"epv":33.350,"track":86.8600,"speed":4.152,"climb":-0.200,"eps":42.41,"epc":66.70}
{"class":"TPV","device":"/dev/ttyUSB0","mode":3,"time":"2016-12-07T01:58:55.000Z","ept":0.005,"lat":47.421781667,"lon":-122.251355000,"alt":11.500,"epx":12.172,"epy":21.206,"epv":33.350,"track":88.5800,"speed":3.066,"climb":-0.400,"eps":42.41,"epc":66.70}
{"class":"TPV","device":"/dev/ttyUSB0","mode":3,"time":"2016-12-07T01:58:56.000Z","ept":0.005,"lat":47.421785000,"lon":-122.251321667,"alt":11.200,"epx":12.172,"epy":21.206,"epv":33.350,"track":89.6800,"speed":1.914,"climb":-0.300,"eps":42.41,"epc":66.70}
{"class":"TPV","device":"/dev/ttyUSB0","mode":3,"time":"2016-12-07T01:58:57.000Z","ept":0.005,"lat":47.421785000,"lon":-122.251305000,"alt":11.100,"epx":12.172,"epy":21.206,"epv":33.350,"track":89.6800,"speed":0.072,"climb":-0.100,"eps":42.41,"epc":66.70}
{"class":"TPV","device":"/dev/ttyUSB0","mode":3,"time":"2016-12-07T01:58:58.000Z","ept":0.005,"lat":47.421786667,"lon":-122.251300000,"alt":10.900,"epx":12.172,"epy":21.206,"epv":18.860,"track":89.6800,"speed":0.010,"climb":-0.200,"eps":42.41,"epc":52.21}
{"class":"SKY","device":"/dev/ttyUSB0","xdop":0.81,"ydop":1.41,"vdop":0.82,"tdop":1.60,"hdop":0.95,"gdop":3.10,"pdop":1.26,"satellites":[{"PRN":23,"el":80,"az":82,"ss":47,"used":true},{"PRN":9,"el":57,"az":300,"ss":37,"used":true},{"PRN":16,"el":51,"az":92,"ss":45,"used":true},{"PRN":26,"el":35,"az":56,"ss":43,"used":true},{"PRN":135,"el":34,"az":194,"ss":40,"used":false},{"PRN":7,"el":33,"az":243,"ss":42,"used":true},{"PRN":3,"el":32,"az":175,"ss":39,"used":true},{"PRN":22,"el":18,"az":168,"ss":40,"used":true},{"PRN":2,"el":9,"az":316,"ss":32,"used":true},{"PRN":6,"el":0,"az":0,"ss":16,"used":false}]}
{"class":"TPV","device":"/dev/ttyUSB0","mode":3,"time":"2016-12-07T01:58:59.000Z","ept":0.005,"lat":47.421788333,"lon":-122.251301667,"alt":10.200,"epx":12.172,"epy":21.206,"epv":18.860,"track":89.6800,"speed":0.000,"climb":-0.700,"eps":42.41,"epc":37.72}
{"class":"TPV","device":"/dev/ttyUSB0","mode":3,"time":"2016-12-07T01:59:00.000Z","ept":0.005,"lat":47.421791667,"lon":-122.251303333,"alt":9.800,"epx":12.172,"epy":21.206,"epv":18.860,"track":89.6800,"speed":0.021,"climb":-0.400,"eps":42.41,"epc":37.72}
{"class":"TPV","device":"/dev/ttyUSB0","mode":3,"time":"2016-12-07T01:59:01.000Z","ept":0.005,"lat":47.421791667,"lon":-122.251300000,"alt":9.800,"epx":12.172,"epy":21.206,"epv":18.860,"track":89.6800,"speed":0.031,"climb":0.000,"eps":42.41,"epc":37.72}
{"class":"TPV","device":"/dev/ttyUSB0","mode":3,"time":"2016-12-07T01:59:02.000Z","ept":0.005,"lat":47.421791667,"lon":-122.251296667,"alt":9.800,"epx":12.172,"epy":21.206,"epv":18.860,"track":89.6800,"speed":0.000,"climb":0.000,"eps":42.41,"epc":37.72}
{"class":"TPV","device":"/dev/ttyUSB0","mode":3,"time":"2016-12-07T01:59:03.000Z","ept":0.005,"lat":47.421791667,"lon":-122.251296667,"alt":9.700,"epx":12.172,"epy":21.206,"epv":18.860,"track":89.6800,"speed":0.000,"climb":-0.100,"eps":42.41,"epc":37.72}
{"class":"SKY","device":"/dev/ttyUSB0","xdop":0.81,"ydop":1.41,"vdop":0.82,"tdop":1.60,"hdop":0.95,"gdop":3.10,"pdop":1.26,"satellites":[{"PRN":23,"el":80,"az":82,"ss":47,"used":true},{"PRN":9,"el":57,"az":300,"ss":37,"used":true},{"PRN":16,"el":51,"az":92,"ss":45,"used":true},{"PRN":26,"el":35,"az":56,"ss":42,"used":true},{"PRN":135,"el":34,"az":194,"ss":40,"used":false},{"PRN":7,"el":33,"az":243,"ss":43,"used":true},{"PRN":3,"el":32,"az":175,"ss":40,"used":true},{"PRN":22,"el":18,"az":168,"ss":39,"used":true},{"PRN":2,"el":9,"az":316,"ss":34,"used":true},{"PRN":6,"el":0,"az":0,"ss":15,"used":false}]}
{"class":"TPV","device":"/dev/ttyUSB0","mode":3,"time":"2016-12-07T01:59:04.000Z","ept":0.005,"lat":47.421791667,"lon":-122.251296667,"alt":9.700,"epx":12.172,"epy":21.206,"epv":33.350,"track":89.6800,"speed":0.000,"climb":0.000,"eps":42.41,"epc":52.21}
{"class":"TPV","device":"/dev/ttyUSB0","mode":3,"time":"2016-12-07T01:59:05.000Z","ept":0.005,"lat":47.421791667,"lon":-122.251296667,"alt":9.700,"epx":12.172,"epy":21.206,"epv":18.860,"track":89.6800,"speed":0.000,"climb":0.000,"eps":42.41,"epc":52.21}
{"class":"TPV","device":"/dev/ttyUSB0","mode":3,"time":"2016-12-07T01:59:06.000Z","ept":0.005,"lat":47.421791667,"lon":-122.251296667,"alt":9.700,"epx":12.172,"epy":21.206,"epv":18.860,"track":89.6800,"speed":0.000,"climb":0.000,"eps":42.41,"epc":37.72}
{"class":"TPV","device":"/dev/ttyUSB0","mode":3,"time":"2016-12-07T01:59:07.000Z","ept":0.005,"lat":47.421791667,"lon":-122.251296667,"alt":9.700,"epx":12.172,"epy":21.206,"epv":18.860,"track":89.6800,"speed":0.000,"climb":0.000,"eps":42.41,"epc":37.72}
{"class":"TPV","device":"/dev/ttyUSB0","mode":3,"time":"2016-12-07T01:59:08.000Z","ept":0.005,"lat":47.421791667,"lon":-122.251296667,"alt":9.700,"epx":12.172,"epy":21.206,"epv":18.860,"track":89.6800,"speed":0.000,"climb":0.000,"eps":42.41,"epc":37.72}
{"class":"SKY","device":"/dev/ttyUSB0","xdop":0.81,"ydop":1.41,"vdop":0.82,"tdop":1.60,"hdop":0.95,"gdop":3.10,"pdop":1.26,"satellites":[{"PRN":23,"el":80,"az":82,"ss":47,"used":true},{"PRN":9,"el":57,"az":300,"ss":37,"used":true},{"PRN":16,"el":51,"az":92,"ss":45,"used":true},{"PRN":26,"el":35,"az":56,"ss":42,"used":true},{"PRN":135,"el":34,"az":194,"ss":40,"used":false},{"PRN":7,"el":33,"az":243,"ss":43,"used":true},{"PRN":3,"el":32,"az":175,"ss":40,"used":true},{"PRN":22,"el":18,"az":168,"ss":39,"used":true},{"PRN":2,"el":9,"az":316,"ss":35,"used":true},{"PRN":27,"el":1,"az":118,"ss":0,"used":false},{"PRN":6,"el":0,"az":0,"ss":17,"used":false}]}
{"class":"TPV","device":"/dev/ttyUSB0","mode":3,"time":"2016-12-07T01:59:09.000Z","ept":0.005,"lat":47.421791667,"lon":-122.251296667,"alt":9.700,"epx":12.172,"epy":21.206,"epv":18.860,"track":89.6800,"speed":0.000,"climb":0.000,"eps":42.41,"epc":37.72}
{"class":"TPV","device":"/dev/ttyUSB0","mode":3,"time":"2016-12-07T01:59:10.000Z","ept":0.005,"lat":47.421791667,"lon":-122.251296667,"alt":9.700,"epx":12.172,"epy":21.206,"epv":18.860,"track":89.6800,"speed":0.000,"climb":0.000,"eps":42.41,"epc":37.72}
{"class":"TPV","device":"/dev/ttyUSB0","mode":3,"time":"2016-12-07T01:59:11.000Z","ept":0.005,"lat":47.421791667,"lon":-122.251296667,"alt":9.700,"epx":12.172,"epy":21.206,"epv":18.860,"track":89.6800,"speed":0.000,"climb":0.000,"eps":42.41,"epc":37.72}
{"class":"TPV","device":"/dev/ttyUSB0","mode":3,"time":"2016-12-07T01:59:12.000Z","ept":0.005,"lat":47.421791667,"lon":-122.251296667,"alt":9.700,"epx":12.172,"epy":21.206,"epv":18.860,"track":89.6800,"speed":0.000,"climb":0.000,"eps":42.41,"epc":37.72}
{"class":"TPV","device":"/dev/ttyUSB0","mode":3,"time":"2016-12-07T01:59:13.000Z","ept":0.005,"lat":47.421791667,"lon":-122.251296667,"alt":9.700,"epx":12.172,"epy":21.206,"epv":18.860,"track":89.6800,"speed":0.000,"climb":0.000,"eps":42.41,"epc":37.72}
{"class":"SKY","device":"/dev/ttyUSB0","xdop":0.81,"ydop":1.41,"vdop":1.45,"tdop":1.60,"hdop":0.97,"gdop":3.10,"pdop":1.74,"satellites":[{"PRN":23,"el":80,"az":82,"ss":47,"used":true},{"PRN":9,"el":57,"az":300,"ss":37,"used":true},{"PRN":16,"el":51,"az":91,"ss":45,"used":true},{"PRN":26,"el":35,"az":56,"ss":42,"used":true},{"PRN":135,"el":34,"az":194,"ss":39,"used":false},{"PRN":7,"el":33,"az":243,"ss":43,"used":true},{"PRN":3,"el":32,"az":175,"ss":39,"used":true},{"PRN":22,"el":18,"az":168,"ss":38,"used":true},{"PRN":2,"el":9,"az":316,"ss":36,"used":true},{"PRN":27,"el":1,"az":118,"ss":0,"used":false},{"PRN":6,"el":0,"az":0,"ss":17,"used":false}]}
{"class":"TPV","device":"/dev/ttyUSB0","mode":3,"time":"2016-12-07T01:59:14.000Z","ept":0.005,"lat":47.421791667,"lon":-122.251296667,"alt":9.700,"epx":12.172,"epy":21.206,"epv":18.860,"track":89.6800,"speed":0.000,"climb":0.000,"eps":42.41,"epc":37.72}
{"class":"TPV","device":"/dev/ttyUSB0","mode":3,"time":"2016-12-07T01:59:15.000Z","ept":0.005,"lat":47.421791667,"lon":-122.251296667,"alt":9.700,"epx":12.172,"epy":21.206,"epv":33.350,"track":89.6800,"speed":0.000,"climb":0.000,"eps":42.41,"epc":52.21}
{"class":"TPV","device":"/dev/ttyUSB0","mode":3,"time":"2016-12-07T01:59:16.000Z","ept":0.005,"lat":47.421791667,"lon":-122.251296667,"alt":9.700,"epx":12.172,"epy":21.206,"epv":18.860,"track":89.6800,"speed":0.000,"climb":0.000,"eps":42.41,"epc":52.21}
{"class":"TPV","device":"/dev/ttyUSB0","mode":3,"time":"2016-12-07T01:59:17.000Z","ept":0.005,"lat":47.421791667,"lon":-122.251296667,"alt":9.700,"epx":12.172,"epy":21.206,"epv":18.860,"track":89.6800,"speed":0.000,"climb":0.000,"eps":42.41,"epc":37.72}
{"class":"TPV","device":"/dev/ttyUSB0","mode":3,"time":"2016-12-07T01:59:18.000Z","ept":0.005,"lat":47.421791667,"lon":-122.251296667,"alt":9.700,"epx":12.172,"epy":21.206,"epv":18.860,"track":89.6800,"speed":0.000,"climb":0.000,"eps":42.41,"epc":37.72}
{"class":"SKY","device":"/dev/ttyUSB0","xdop":0.81,"ydop":1.41,"vdop":0.82,"tdop":1.60,"hdop":0.95,"gdop":3.10,"pdop":1.26,"satellites":[{"PRN":23,"el":80,"az":82,"ss":47,"used":true},{"PRN":9,"el":57,"az":300,"ss":37,"used":true},{"PRN":16,"el":51,"az":91,"ss":45,"used":true},{"PRN":26,"el":35,"az":56,"ss":42,"used":true},{"PRN":135,"el":34,"az":194,"ss":40,"used":false},{"PRN":7,"el":33,"az":243,"ss":43,"used":true},{"PRN":3,"el":32,"az":175,"ss":39,"used":true},{"PRN":22,"el":17,"az":168,"ss":38,"used":true},{"PRN":2,"el":9,"az":316,"ss":35,"used":true},{"PRN":27,"el":1,"az":118,"ss":0,"used":false},{"PRN":6,"el":0,"az":0,"ss":17,"used":false}]}
{"class":"TPV","device":"/dev/ttyUSB0","mode":3,"time":"2016-12-07T01:59:19.000Z","ept":0.005,"lat":47.421791667,"lon":-122.251296667,"alt":9.700,"epx":12.172,"epy":21.206,"epv":18.860,"track":89.6800,"speed":0.000,"climb":0.000,"eps":42.41,"epc":37.72}
{"class":"TPV","device":"/dev/ttyUSB0","mode":3,"time":"2016-12-07T01:59:20.000Z","ept":0.005,"lat":47.421791667,"lon":-122.251296667,"alt":9.700,"epx":12.172,"epy":21.206,"epv":18.860,"track":89.6800,"speed":0.000,"climb":0.000,"eps":42.41,"epc":37.72}
{"class":"TPV","device":"/dev/ttyUSB0","mode":3,"time":"2016-12-07T01:59:21.000Z","ept":0.005,"lat":47.421791667,"lon":-122.251296667,"alt":9.700,"epx":12.172,"epy":21.206,"epv":18.860,"track":89.6800,"speed":0.000,"climb":0.000,"eps":42.41,"epc":37.72}
{"class":"TPV","device":"/dev/ttyUSB0","mode":3,"time":"2016-12-07T01:59:22.000Z","ept":0.005,"lat":47.421791667,"lon":-122.251296667,"alt":9.700,"epx":12.172,"epy":21.206,"epv":18.860,"track":89.6800,"speed":0.010,"climb":0.000,"eps":42.41,"epc":37.72}
{"class":"TPV","device":"/dev/ttyUSB0","mode":3,"time":"2016-12-07T01:59:23.000Z","ept":0.005,"lat":47.421791667,"lon":-122.251296667,"alt":9.700,"epx":12.172,"epy":21.206,"epv":18.860,"track":89.6800,"speed":0.005,"climb":0.000,"eps":42.41,"epc":37.72}
{"class":"SKY","device":"/dev/ttyUSB0","xdop":0.81,"ydop":1.41,"vdop":1.44,"tdop":1.60,"hdop":0.97,"gdop":3.10,"pdop":1.74,"satellites":[{"PRN":23,"el":80,"az":83,"ss":46,"used":true},{"PRN":9,"el":57,"az":300,"ss":37,"used":true},{"PRN":16,"el":51,"az":91,"ss":45,"used":true},{"PRN":26,"el":35,"az":56,"ss":42,"used":true},{"PRN":135,"el":34,"az":194,"ss":39,"used":false},{"PRN":7,"el":33,"az":243,"ss":44,"used":true},{"PRN":3,"el":32,"az":175,"ss":40,"used":true},{"PRN":22,"el":17,"az":168,"ss":39,"used":true},{"PRN":2,"el":9,"az":316,"ss":32,"used":true},{"PRN":27,"el":1,"az":118,"ss":0,"used":false},{"PRN":6,"el":0,"az":0,"ss":18,"used":false}]}
{"class":"TPV","device":"/dev/ttyUSB0","mode":3,"time":"2016-12-07T01:59:24.000Z","ept":0.005,"lat":47.421791667,"lon":-122.251296667,"alt":9.700,"epx":12.172,"epy":21.206,"epv":18.860,"track":89.6800,"speed":0.010,"climb":0.000,"eps":42.41,"epc":37.72}
{"class":"TPV","device":"/dev/ttyUSB0","mode":3,"time":"2016-12-07T01:59:25.000Z","ept":0.005,"lat":47.421791667,"lon":-122.251296667,"alt":9.700,"epx":12.172,"epy":21.206,"epv":33.120,"track":89.6800,"speed":0.005,"climb":0.000,"eps":42.41,"epc":51.98}
{"class":"TPV","device":"/dev/ttyUSB0","mode":3,"time":"2016-12-07T01:59:26.000Z","ept":0.005,"lat":47.421791667,"lon":-122.251296667,"alt":9.600,"epx":12.172,"epy":21.206,"epv":18.860,"track":89.6800,"speed":0.005,"climb":-0.100,"eps":42.41,"epc":51.98}
{"class":"TPV","device":"/dev/ttyUSB0","mode":3,"time":"2016-12-07T01:59:27.000Z","ept":0.005,"lat":47.421791667,"lon":-122.251296667,"alt":9.600,"epx":12.172,"epy":21.206,"epv":18.860,"track":89.6800,"speed":0.010,"climb":0.000,"eps":42.41,"epc":37.72}
{"class":"TPV","device":"/dev/ttyUSB0","mode":3,"time":"2016-12-07T01:59:28.000Z","ept":0.005,"lat":47.421791667,"lon":-122.251296667,"alt":9.600,"epx":12.172,"epy":21.206,"epv":18.860,"track":89.6800,"speed":0.005,"climb":0.000,"eps":42.41,"epc":37.72}
{"class":"SKY","device":"/dev/ttyUSB0","xdop":0.81,"ydop":1.41,"vdop":0.82,"tdop":1.60,"hdop":0.95,"gdop":3.10,"pdop":1.26,"satellites":[{"PRN":23,"el":80,"az":83,"ss":46,"used":true},{"PRN":9,"el":57,"az":300,"ss":37,"used":true},{"PRN":16,"el":51,"az":91,"ss":44,"used":true},{"PRN":26,"el":35,"az":56,"ss":42,"used":true},{"PRN":135,"el":34,"az":194,"ss":38,"used":false},{"PRN":7,"el":33,"az":243,"ss":44,"used":true},{"PRN":3,"el":32,"az":175,"ss":40,"used":true},{"PRN":22,"el":17,"az":168,"ss":39,"used":true},{"PRN":2,"el":9,"az":316,"ss":32,"used":true},{"PRN":27,"el":1,"az":118,"ss":0,"used":false},{"PRN":6,"el":0,"az":0,"ss":16,"used":false}]}
{"class":"TPV","device":"/dev/ttyUSB0","mode":3,"time":"2016-12-07T01:59:29.000Z","ept":0.005,"lat":47.421791667,"lon":-122.251296667,"alt":9.600,"epx":12.172,"epy":21.206,"epv":18.860,"track":89.6800,"speed":0.000,"climb":0.000,"eps":42.41,"epc":37.72}
{"class":"TPV","device":"/dev/ttyUSB0","mode":3,"time":"2016-12-07T01:59:30.000Z","ept":0.005,"lat":47.421791667,"lon":-122.251296667,"alt":9.600,"epx":12.172,"epy":21.206,"epv":18.860,"track":89.6800,"speed":0.000,"climb":0.000,"eps":42.41,"epc":37.72}
{"class":"TPV","device":"/dev/ttyUSB0","mode":3,"time":"2016-12-07T01:59:31.000Z","ept":0.005,"lat":47.421791667,"lon":-122.251296667,"alt":9.600,"epx":12.172,"epy":21.206,"epv":18.860,"track":89.6800,"speed":0.005,"climb":0.000,"eps":42.41,"epc":37.72}
{"class":"TPV","device":"/dev/ttyUSB0","mode":3,"time":"2016-12-07T01:59:32.000Z","ept":0.005,"lat":47.421791667,"lon":-122.251296667,"alt":9.600,"epx":12.172,"epy":21.206,"epv":18.860,"track":89.6800,"speed":0.000,"climb":0.000,"eps":42.41,"epc":37.72}
{"class":"TPV","device":"/dev/ttyUSB0","mode":3,"time":"2016-12-07T01:59:33.000Z","ept":0.005,"lat":47.421791667,"lon":-122.251296667,"alt":9.600,"epx":12.172,"epy":21.206,"epv":18.860,"track":89.6800,"speed":0.000,"climb":0.000,"eps":42.41,"epc":37.72}
{"class":"SKY","device":"/dev/ttyUSB0","xdop":0.81,"ydop":1.41,"vdop":0.82,"tdop":1.60,"hdop":0.95,"gdop":3.10,"pdop":1.25,"satellites":[{"PRN":23,"el":80,"az":83,"ss":46,"used":true},{"PRN":9,"el":57,"az":300,"ss":37,"used":true},{"PRN":16,"el":51,"az":91,"ss":44,"used":true},{"PRN":26,"el":35,"az":56,"ss":42,"used":true},{"PRN":135,"el":34,"az":194,"ss":38,"used":false},{"PRN":7,"el":33,"az":243,"ss":44,"used":true},{"PRN":3,"el":32,"az":175,"ss":40,"used":true},{"PRN":22,"el":17,"az":168,"ss":39,"used":true},{"PRN":2,"el":9,"az":316,"ss":33,"used":true},{"PRN":27,"el":1,"az":118,"ss":0,"used":false},{"PRN":6,"el":0,"az":0,"ss":16,"used":false}]}
{"class":"TPV","device":"/dev/ttyUSB0","mode":3,"time":"2016-12-07T01:59:34.000Z","ept":0.005,"lat":47.421791667,"lon":-122.251296667,"alt":9.600,"epx":12.172,"epy":21.206,"epv":18.860,"track":89.6800,"speed":0.000,"climb":0.000,"eps":42.41,"epc":37.72}
{"class":"TPV","device":"/dev/ttyUSB0","mode":3,"time":"2016-12-07T01:59:35.000Z","ept":0.005,"lat":47.421791667,"lon":-122.251296667,"alt":9.600,"epx":12.172,"epy":21.206,"epv":18.860,"track":89.6800,"speed":0.000,"climb":0.000,"eps":42.41,"epc":37.72}
{"class":"TPV","device":"/dev/ttyUSB0","mode":3,"time":"2016-12-07T01:59:36.000Z","ept":0.005,"lat":47.421791667,"lon":-122.251296667,"alt":9.600,"epx":12.172,"epy":21.206,"epv":33.120,"track":89.6800,"speed":0.005,"climb":0.000,"eps":42.41,"epc":51.98}
{"class":"TPV","device":"/dev/ttyUSB0","mode":3,"time":"2016-12-07T01:59:37.000Z","ept":0.005,"lat":47.421791667,"lon":-122.251296667,"alt":9.600,"epx":12.172,"epy":21.206,"epv":33.120,"track":89.6800,"speed":0.005,"climb":0.000,"eps":42.41,"epc":66.24}
{"class":"TPV","device":"/dev/ttyUSB0","mode":3,"time":"2016-12-07T01:59:38.000Z","ept":0.005,"lat":47.421791667,"lon":-122.251296667,"alt":9.600,"epx":12.172,"epy":21.206,"epv":33.120,"track":89.6800,"speed":0.005,"climb":0.000,"eps":42.41,"epc":66.24}
{"class":"SKY","device":"/dev/ttyUSB0","xdop":0.81,"ydop":1.41,"vdop":1.44,"tdop":1.60,"hdop":0.97,"gdop":3.10,"pdop":1.74,"satellites":[{"PRN":23,"el":80,"az":83,"ss":46,"used":true},{"PRN":9,"el":57,"az":300,"ss":37,"used":true},{"PRN":16,"el":51,"az":91,"ss":44,"used":true},{"PRN":26,"el":35,"az":56,"ss":42,"used":true},{"PRN":135,"el":34,"az":194,"ss":38,"used":false},{"PRN":7,"el":33,"az":243,"ss":44,"used":true},{"PRN":3,"el":32,"az":175,"ss":40,"used":true},{"PRN":22,"el":17,"az":168,"ss":39,"used":true},{"PRN":2,"el":9,"az":316,"ss":33,"used":true},{"PRN":27,"el":1,"az":118,"ss":0,"used":false},{"PRN":6,"el":0,"az":0,"ss":16,"used":false}]}
{"class":"TPV","device":"/dev/ttyUSB0","mode":3,"time":"2016-12-07T01:59:39.000Z","ept":0.005,"lat":47.421791667,"lon":-122.251296667,"alt":9.600,"epx":12.172,"epy":21.206,"epv":33.120,"track":89.6800,"speed":0.005,"climb":0.000,"eps":42.41,"epc":66.24}
{"class":"TPV","device":"/dev/ttyUSB0","mode":3,"time":"2016-12-07T01:59:40.000Z","ept":0.005,"lat":47.421791667,"lon":-122.251296667,"alt":9.600,"epx":12.172,"epy":21.206,"epv":33.120,"track":89.6800,"speed":0.005,"climb":0.000,"eps":42.41,"epc":66.24}
{"class":"TPV","device":"/dev/ttyUSB0","mode":3,"time":"2016-12-07T01:59:41.000Z","ept":0.005,"lat":47.421791667,"lon":-122.251296667,"alt":9.600,"epx":12.172,"epy":21.206,"epv":33.120,"track":89.6800,"speed":0.000,"climb":0.000,"eps":42.41,"epc":66.24}
{"class":"TPV","device":"/dev/ttyUSB0","mode":3,"time":"2016-12-07T01:59:42.000Z","ept":0.005,"lat":47.421791667,"lon":-122.251296667,"alt":9.600,"epx":12.172,"epy":21.206,"epv":33.120,"track":89.6800,"speed":0.005,"climb":0.000,"eps":42.41,"epc":66.24}
{"class":"TPV","device":"/dev/ttyUSB0","mode":3,"time":"2016-12-07T01:59:43.000Z","ept":0.005,"lat":47.421791667,"lon":-122.251296667,"alt":9.600,"epx":12.172,"epy":21.206,"epv":33.120,"track":89.6800,"speed":0.005,"climb":0.000,"eps":42.41,"epc":66.24}
{"class":"SKY","device":"/dev/ttyUSB0","xdop":0.81,"ydop":1.41,"vdop":1.44,"tdop":1.60,"hdop":0.97,"gdop":3.10,"pdop":1.74,"satellites":[{"PRN":23,"el":80,"az":83,"ss":46,"used":true},{"PRN":9,"el":58,"az":300,"ss":37,"used":true},{"PRN":16,"el":51,"az":91,"ss":44,"used":true},{"PRN":26,"el":35,"az":56,"ss":42,"used":true},{"PRN":7,"el":34,"az":244,"ss":44,"used":true},{"PRN":135,"el":34,"az":194,"ss":39,"used":false},{"PRN":3,"el":32,"az":175,"ss":40,"used":true},{"PRN":22,"el":17,"az":168,"ss":39,"used":true},{"PRN":2,"el":9,"az":316,"ss":34,"used":true},{"PRN":27,"el":1,"az":118,"ss":0,"used":false},{"PRN":6,"el":0,"az":0,"ss":16,"used":false}]}
{"class":"TPV","device":"/dev/ttyUSB0","mode":3,"time":"2016-12-07T01:59:44.000Z","ept":0.005,"lat":47.421791667,"lon":-122.251296667,"alt":9.600,"epx":12.172,"epy":21.206,"epv":33.120,"track":89.6800,"speed":0.015,"climb":0.000,"eps":42.41,"epc":66.24}
{"class":"TPV","device":"/dev/ttyUSB0","mode":3,"time":"2016-12-07T01:59:45.000Z","ept":0.005,"lat":47.421791667,"lon":-122.251296667,"alt":9.600,"epx":12.172,"epy":21.206,"epv":33.120,"track":89.6800,"speed":0.304,"climb":0.000,"eps":42.41,"epc":66.24}
{"class":"TPV","device":"/dev/ttyUSB0","mode":3,"time":"2016-12-07T01:59:46.000Z","ept":0.005,"lat":47.421791667,"lon":-122.251293333,"alt":9.600,"epx":12.172,"epy":21.206,"epv":33.120,"track":89.6800,"speed":1.348,"climb":0.000,"eps":42.41,"epc":66.24}
{"class":"TPV","device":"/dev/ttyUSB0","mode":3,"time":"2016-12-07T01:59:47.000Z","ept":0.005,"lat":47.421800000,"lon":-122.251270000,"alt":9.700,"epx":12.172,"epy":21.206,"epv":18.860,"track":55.2800,"speed":2.619,"climb":0.100,"eps":42.41,"epc":51.98}
{"class":"TPV","device":"/dev/ttyUSB0","mode":3,"time":"2016-12-07T01:59:48.000Z","ept":0.005,"lat":47.421825000,"lon":-122.251238333,"alt":9.600,"epx":12.172,"epy":21.206,"epv":18.860,"track":35.2400,"speed":4.198,"climb":-0.100,"eps":42.41,"epc":37.72}
{"class":"SKY","device":"/dev/ttyUSB0","xdop":0.81,"ydop":1.41,"vdop":1.44,"tdop":1.60,"hdop":0.97,"gdop":3.10,"pdop":1.74,"satellites":[{"PRN":23,"el":80,"az":83,"ss":39,"used":true},{"PRN":9,"el":58,"az":300,"ss":36,"used":true},{"PRN":16,"el":51,"az":91,"ss":40,"used":true},{"PRN":26,"el":35,"az":56,"ss":42,"used":true},{"PRN":7,"el":34,"az":244,"ss":38,"used":true},{"PRN":135,"el":34,"az":194,"ss":39,"used":false},{"PRN":3,"el":32,"az":175,"ss":38,"used":true},{"PRN":22,"el":17,"az":168,"ss":40,"used":true},{"PRN":2,"el":9,"az":316,"ss":31,"used":true},{"PRN":27,"el":1,"az":118,"ss":0,"used":false},{"PRN":6,"el":0,"az":0,"ss":24,"used":false}]}
{"class":"TPV","device":"/dev/ttyUSB0","mode":3,"time":"2016-12-07T01:59:49.000Z","ept":0.005,"lat":47.421866667,"lon":-122.251210000,"alt":9.600,"epx":12.172,"epy":21.206,"epv":33.120,"track":20.3900,"speed":5.530,"climb":0.000,"eps":42.41,"epc":51.98}
{"class":"TPV","device":"/dev/ttyUSB0","mode":3,"time":"2016-12-07T01:59:50.000Z","ept":0.005,"lat":47.421923333,"lon":-122.251196667,"alt":9.700,"epx":12.172,"epy":21.206,"epv":33.120,"track":5.3000,"speed":6.981,"climb":0.100,"eps":42.41,"epc":66.24}
{"class":"TPV","device":"/dev/ttyUSB0","mode":3,"time":"2016-12-07T01:59:51.000Z","ept":0.005,"lat":47.421993333,"lon":-122.251196667,"alt":9.800,"epx":12.172,"epy":21.206,"epv":33.120,"track":359.2800,"speed":8.283,"climb":0.100,"eps":42.41,"epc":66.24}
{"class":"TPV","device":"/dev/ttyUSB0","mode":3,"time":"2016-12-07T01:59:52.000Z","ept":0.005,"lat":47.422078333,"lon":-122.251208333,"alt":10.000,"epx":12.172,"epy":21.206,"epv":33.120,"track":355.6900,"speed":9.651,"climb":0.200,"eps":42.41,"epc":66.24}
{"class":"TPV","device":"/dev/ttyUSB0","mode":3,"time":"2016-12-07T01:59:53.000Z","ept":0.005,"lat":47.422170000,"lon":-122.251218333,"alt":9.900,"epx":12.172,"epy":21.206,"epv":33.120,"track":357.0000,"speed":10.659,"climb":-0.100,"eps":42.41,"epc":66.24}
{"class":"SKY","device":"/dev/ttyUSB0","xdop":0.81,"ydop":1.41,"vdop":1.44,"tdop":1.60,"hdop":0.97,"gdop":3.10,"pdop":1.73,"satellites":[{"PRN":23,"el":80,"az":83,"ss":33,"used":true},{"PRN":9,"el":58,"az":300,"ss":40,"used":true},{"PRN":16,"el":51,"az":91,"ss":43,"used":true},{"PRN":26,"el":35,"az":56,"ss":39,"used":true},{"PRN":7,"el":34,"az":244,"ss":42,"used":true},{"PRN":135,"el":34,"az":194,"ss":25,"used":false},{"PRN":3,"el":32,"az":175,"ss":36,"used":true},{"PRN":22,"el":17,"az":168,"ss":29,"used":true},{"PRN":2,"el":9,"az":316,"ss":39,"used":true},{"PRN":27,"el":1,"az":118,"ss":0,"used":false},{"PRN":6,"el":0,"az":0,"ss":27,"used":false}]}
{"class":"TPV","device":"/dev/ttyUSB0","mode":3,"time":"2016-12-07T01:59:54.000Z","ept":0.005,"lat":47.422270000,"lon":-122.251228333,"alt":9.800,"epx":12.172,"epy":21.206,"epv":33.120,"track":357.4500,"speed":10.989,"climb":-0.100,"eps":42.41,"epc":66.24}
{"class":"TPV","device":"/dev/ttyUSB0","mode":3,"time":"2016-12-07T01:59:55.000Z","ept":0.005,"lat":47.422371667,"lon":-122.251238333,"alt":9.800,"epx":12.172,"epy":21.206,"epv":33.120,"track":357.0500,"speed":10.968,"climb":0.000,"eps":42.41,"epc":66.24}
{"class":"TPV","device":"/dev/ttyUSB0","mode":3,"time":"2016-12-07T01:59:56.000Z","ept":0.005,"lat":47.422471667,"lon":-122.251250000,"alt":9.800,"epx":12.172,"epy":21.206,"epv":33.120,"track":357.0500,"speed":10.942,"climb":0.000,"eps":42.41,"epc":66.24}
{"class":"TPV","device":"/dev/ttyUSB0","mode":3,"time":"2016-12-07T01:59:57.000Z","ept":0.005,"lat":47.422570000,"lon":-122.251258333,"alt":9.900,"epx":12.172,"epy":21.206,"epv":33.120,"track":358.0200,"speed":10.742,"climb":0.100,"eps":42.41,"epc":66.24}
{"class":"TPV","device":"/dev/ttyUSB0","mode":3,"time":"2016-12-07T01:59:58.000Z","ept":0.005,"lat":47.422668333,"lon":-122.251265000,"alt":10.000,"epx":12.172,"epy":21.206,"epv":33.120,"track":358.7100,"speed":10.562,"climb":0.100,"eps":42.41,"epc":66.24}
{"class":"SKY","device":"/dev/ttyUSB0","xdop":0.81,"ydop":1.41,"vdop":1.44,"tdop":1.60,"hdop":0.97,"gdop":3.10,"pdop":1.73,"satellites":[{"PRN":23,"el":80,"az":84,"ss":32,"used":true},{"PRN":9,"el":58,"az":300,"ss":41,"used":true},{"PRN":16,"el":51,"az":91,"ss":43,"used":true},{"PRN":26,"el":35,"az":56,"ss":39,"used":true},{"PRN":7,"el":34,"az":244,"ss":42,"used":true},{"PRN":135,"el":34,"az":194,"ss":26,"used":false},{"PRN":3,"el":32,"az":175,"ss":35,"used":true},{"PRN":22,"el":17,"az":168,"ss":32,"used":true},{"PRN":2,"el":9,"az":316,"ss":40,"used":true},{"PRN":27,"el":1,"az":118,"ss":0,"used":false},{"PRN":6,"el":0,"az":0,"ss":28,"used":false}]}
{"class":"TPV","device":"/dev/ttyUSB0","mode":3,"time":"2016-12-07T01:59:59.000Z","ept":0.005,"lat":47.422763333,"lon":-122.251268333,"alt":10.100,"epx":12.172,"epy":21.206,"epv":33.120,"track":358.8900,"speed":10.273,"climb":0.100,"eps":42.41,"epc":66.24}
{"class":"TPV","device":"/dev/ttyUSB0","mode":3,"time":"2016-12-07T02:00:00.000Z","ept":0.005,"lat":47.422856667,"lon":-122.251273333,"alt":10.300,"epx":12.172,"epy":21.206,"epv":33.120,"track":359.1500,"speed":9.960,"climb":0.200,"eps":42.41,"epc":66.24}
{"class":"TPV","device":"/dev/ttyUSB0","mode":3,"time":"2016-12-07T02:00:01.000Z","ept":0.005,"lat":47.422946667,"lon":-122.251276667,"alt":10.300,"epx":12.172,"epy":21.206,"epv":33.120,"track":359.3300,"speed":9.646,"climb":0.000,"eps":42.41,"epc":66.24}
{"class":"TPV","device":"/dev/ttyUSB0","mode":3,"time":"2016-12-07T02:00:02.000Z","ept":0.005,"lat":47.423035000,"lon":-122.251280000,"alt":10.300,"epx":12.172,"epy":21.206,"epv":33.120,"track":359.5000,"speed":9.219,"climb":0.000,"eps":42.41,"epc":66.24}
{"class":"TPV","device":"/dev/ttyUSB0","mode":3,"time":"2016-12-07T02:00:03.000Z","ept":0.005,"lat":47.423118333,"lon":-122.251283333,"alt":10.200,"epx":12.172,"epy":21.206,"epv":33.120,"track":359.6000,"speed":8.602,"climb":-0.100,"eps":42.41,"epc":66.24}
{"class":"SKY","device":"/dev/ttyUSB0","xdop":0.81,"ydop":1.41,"vdop":1.44,"tdop":1.60,"hdop":0.97,"gdop":3.10,"pdop":1.73,"satellites":[{"PRN":23,"el":80,"az":84,"ss":36,"used":true},{"PRN":9,"el":58,"az":300,"ss":40,"used":true},{"PRN":16,"el":51,"az":91,"ss":43,"used":true},{"PRN":26,"el":35,"az":56,"ss":38,"used":true},{"PRN":7,"el":34,"az":244,"ss":43,"used":true},{"PRN":135,"el":34,"az":194,"ss":28,"used":false},{"PRN":3,"el":32,"az":175,"ss":35,"used":true},{"PRN":22,"el":17,"az":168,"ss":33,"used":true},{"PRN":2,"el":9,"az":316,"ss":39,"used":true},{"PRN":27,"el":1,"az":118,"ss":0,"used":false},{"PRN":6,"el":0,"az":0,"ss":23,"used":false}]}
{"class":"TPV","device":"/dev/ttyUSB0","mode":3,"time":"2016-12-07T02:00:04.000Z","ept":0.005,"lat":47.423195000,"lon":-122.251285000,"alt":10.100,"epx":12.172,"epy":21.206,"epv":33.120,"track":359.6700,"speed":7.856,"climb":-0.100,"eps":42.41,"epc":66.24}
{"class":"TPV","device":"/dev/ttyUSB0","mode":3,"time":"2016-12-07T02:00:05.000Z","ept":0.005,"lat":47.423263333,"lon":-122.251286667,"alt":10.000,"epx":12.172,"epy":21.206,"epv":33.120,"track":359.7200,"speed":6.919,"climb":-0.100,"eps":42.41,"epc":66.24}
{"class":"TPV","device":"/dev/ttyUSB0","mode":3,"time":"2016-12-07T02:00:06.000Z","ept":0.005,"lat":47.423321667,"lon":-122.251288333,"alt":10.000,"epx":12.172,"epy":21.206,"epv":33.120,"track":359.6000,"speed":6.050,"climb":0.000,"eps":42.41,"epc":66.24}
{"class":"TPV","device":"/dev/ttyUSB0","mode":3,"time":"2016-12-07T02:00:07.000Z","ept":0.005,"lat":47.423376667,"lon":-122.251291667,"alt":9.900,"epx":12.172,"epy":21.206,"epv":33.120,"track":0.3300,"speed":5.273,"climb":-0.100,"eps":42.41,"epc":66.24}
{"class":"TPV","device":"/dev/ttyUSB0","mode":3,"time":"2016-12-07T02:00:08.000Z","ept":0.005,"lat":47.423423333,"lon":-122.251288333,"alt":9.900,"epx":12.172,"epy":21.206,"epv":33.120,"track":6.3700,"speed":4.877,"climb":0.000,"eps":42.41,"epc":66.24}
{"class":"SKY","device":"/dev/ttyUSB0","xdop":0.81,"ydop":1.41,"vdop":1.44,"tdop":1.60,"hdop":0.97,"gdop":3.10,"pdop":1.73,"satellites":[{"PRN":23,"el":80,"az":84,"ss":38,"used":true},{"PRN":9,"el":58,"az":300,"ss":29,"used":true},{"PRN":16,"el":51,"az":91,"ss":41,"used":true},{"PRN":26,"el":35,"az":56,"ss":40,"used":true},{"PRN":7,"el":34,"az":244,"ss":41,"used":true},{"PRN":138,"el":33,"az":160,"ss":36,"used":false},{"PRN":3,"el":32,"az":175,"ss":38,"used":true},{"PRN":22,"el":17,"az":168,"ss":42,"used":true},{"PRN":2,"el":9,"az":316,"ss":36,"used":true},{"PRN":27,"el":1,"az":118,"ss":0,"used":false},{"PRN":6,"el":0,"az":0,"ss":33,"used":false}]}
{"class":"TPV","device":"/dev/ttyUSB0","mode":3,"time":"2016-12-07T02:00:09.000Z","ept":0.005,"lat":47.423463333,"lon":-122.251280000,"alt":9.900,"epx":12.172,"epy":21.206,"epv":33.120,"track":17.4700,"speed":4.218,"climb":0.000,"eps":42.41,"epc":66.24}
{"class":"TPV","device":"/dev/ttyUSB0","mode":3,"time":"2016-12-07T02:00:10.000Z","ept":0.005,"lat":47.423496667,"lon":-122.251255000,"alt":9.900,"epx":12.172,"epy":21.206,"epv":33.120,"track":37.9000,"speed":4.188,"climb":0.000,"eps":42.41,"epc":66.24}
{"class":"TPV","device":"/dev/ttyUSB0","mode":3,"time":"2016-12-07T02:00:11.000Z","ept":0.005,"lat":47.423521667,"lon":-122.251206667,"alt":10.100,"epx":12.172,"epy":21.206,"epv":33.120,"track":64.5700,"speed":5.108,"climb":0.200,"eps":42.41,"epc":66.24}
{"class":"TPV","device":"/dev/ttyUSB0","mode":3,"time":"2016-12-07T02:00:12.000Z","ept":0.005,"lat":47.423533333,"lon":-122.251130000,"alt":10.300,"epx":12.172,"epy":21.206,"epv":33.120,"track":81.7400,"speed":6.652,"climb":0.200,"eps":42.41,"epc":66.24}
{"class":"TPV","device":"/dev/ttyUSB0","mode":3,"time":"2016-12-07T02:00:13.000Z","ept":0.005,"lat":47.423540000,"lon":-122.251030000,"alt":10.400,"epx":12.172,"epy":21.206,"epv":33.120,"track":86.7800,"speed":7.979,"climb":0.100,"eps":42.41,"epc":66.24}
{"class":"SKY","device":"/dev/ttyUSB0","xdop":0.81,"ydop":1.41,"vdop":1.44,"tdop":1.60,"hdop":0.97,"gdop":3.10,"pdop":1.73,"satellites":[{"PRN":23,"el":80,"az":84,"ss":44,"used":true},{"PRN":9,"el":58,"az":300,"ss":36,"used":true},{"PRN":16,"el":51,"az":91,"ss":44,"used":true},{"PRN":26,"el":35,"az":56,"ss":42,"used":true},{"PRN":7,"el":34,"az":244,"ss":42,"used":true},{"PRN":138,"el":33,"az":160,"ss":29,"used":false},{"PRN":3,"el":31,"az":175,"ss":39,"used":true},{"PRN":22,"el":17,"az":168,"ss":22,"used":true},{"PRN":6,"el":15,"az":280,"ss":19,"used":false},{"PRN":2,"el":9,"az":316,"ss":28,"used":true},{"PRN":27,"el":1,"az":118,"ss":0,"used":false}]}
{"class":"TPV","device":"/dev/ttyUSB0","mode":3,"time":"2016-12-07T02:00:14.000Z","ept":0.005,"lat":47.423543333,"lon":-122.250915000,"alt":10.400,"epx":12.172,"epy":21.206,"epv":33.120,"track":88.0400,"speed":9.008,"climb":0.000,"eps":42.41,"epc":66.24}
{"class":"TPV","device":"/dev/ttyUSB0","mode":3,"time":"2016-12-07T02:00:15.000Z","ept":0.005,"lat":47.423545000,"lon":-122.250790000,"alt":10.400,"epx":12.172,"epy":21.206,"epv":33.120,"track":88.2900,"speed":9.455,"climb":0.000,"eps":42.41,"epc":66.24}
{"class":"TPV","device":"/dev/ttyUSB0","mode":3,"time":"2016-12-07T02:00:16.000Z","ept":0.005,"lat":47.423548333,"lon":-122.250661667,"alt":10.300,"epx":12.172,"epy":21.206,"epv":33.120,"track":89.1200,"speed":9.368,"climb":-0.100,"eps":42.41,"epc":66.24}
{"class":"TPV","device":"/dev/ttyUSB0","mode":3,"time":"2016-12-07T02:00:17.000Z","ept":0.005,"lat":47.423546667,"lon":-122.250535000,"alt":10.300,"epx":12.172,"epy":21.206,"epv":33.120,"track":91.4000,"speed":9.173,"climb":0.000,"eps":42.41,"epc":66.24}
{"class":"TPV","device":"/dev/ttyUSB0","mode":3,"time":"2016-12-07T02:00:18.000Z","ept":0.005,"lat":47.423541667,"lon":-122.250411667,"alt":10.200,"epx":12.172,"epy":21.206,"epv":18.860,"track":92.3500,"speed":8.874,"climb":-0.100,"eps":42.41,"epc":51.98}
{"class":"SKY","device":"/dev/ttyUSB0","xdop":0.81,"ydop":1.41,"vdop":0.82,"tdop":1.60,"hdop":0.95,"gdop":3.10,"pdop":1.25,"satellites":[{"PRN":23,"el":80,"az":84,"ss":45,"used":true},{"PRN":9,"el":58,"az":300,"ss":40,"used":true},{"PRN":16,"el":51,"az":91,"ss":46,"used":true},{"PRN":26,"el":35,"az":56,"ss":41,"used":true},{"PRN":7,"el":34,"az":244,"ss":43,"used":true},{"PRN":138,"el":33,"az":160,"ss":37,"used":false},{"PRN":3,"el":31,"az":175,"ss":42,"used":true},{"PRN":22,"el":17,"az":168,"ss":36,"used":true},{"PRN":6,"el":15,"az":280,"ss":25,"used":false},{"PRN":2,"el":9,"az":316,"ss":33,"used":true},{"PRN":27,"el":1,"az":118,"ss":0,"used":false}]}
{"class":"TPV","device":"/dev/ttyUSB0","mode":3,"time":"2016-12-07T02:00:19.000Z","ept":0.005,"lat":47.423536667,"lon":-122.250293333,"alt":10.100,"epx":12.172,"epy":21.206,"epv":18.860,"track":93.2600,"speed":8.452,"climb":-0.100,"eps":42.41,"epc":37.72}
{"class":"TPV","device":"/dev/ttyUSB0","mode":3,"time":"2016-12-07T02:00:20.000Z","ept":0.005,"lat":47.423531667,"lon":-122.250175000,"alt":9.900,"epx":12.172,"epy":21.206,"epv":18.860,"track":92.1900,"speed":7.681,"climb":-0.200,"eps":42.41,"epc":37.72}
{"class":"TPV","device":"/dev/ttyUSB0","mode":3,"time":"2016-12-07T02:00:21.000Z","ept":0.005,"lat":47.423526667,"lon":-122.250078333,"alt":9.800,"epx":12.172,"epy":21.206,"epv":18.860,"track":91.6000,"speed":6.400,"climb":-0.100,"eps":42.41,"epc":37.72}
{"class":"TPV","device":"/dev/ttyUSB0","mode":3,"time":"2016-12-07T02:00:22.000Z","ept":0.005,"lat":47.423521667,"lon":-122.250001667,"alt":9.700,"epx":12.172,"epy":21.206,"epv":33.120,"track":91.8500,"speed":4.784,"climb":-0.100,"eps":42.41,"epc":51.98}
{"class":"TPV","device":"/dev/ttyUSB0","mode":3,"time":"2016-12-07T02:00:23.000Z","ept":0.005,"lat":47.423521667,"lon":-122.249946667,"alt":9.600,"epx":12.172,"epy":21.206,"epv":33.120,"track":91.9600,"speed":3.364,"climb":-0.100,"eps":42.41,"epc":66.24}
{"class":"SKY","device":"/dev/ttyUSB0","xdop":0.81,"ydop":1.41,"vdop":1.44,"tdop":1.60,"hdop":0.97,"gdop":3.10,"pdop":1.73,"satellites":[{"PRN":23,"el":80,"az":84,"ss":45,"used":true},{"PRN":9,"el":58,"az":300,"ss":39,"used":true},{"PRN":16,"el":51,"az":91,"ss":46,"used":true},{"PRN":26,"el":35,"az":56,"ss":41,"used":true},{"PRN":7,"el":34,"az":244,"ss":43,"used":true},{"PRN":138,"el":33,"az":160,"ss":37,"used":false},{"PRN":3,"el":31,"az":175,"ss":41,"used":true},{"PRN":22,"el":17,"az":168,"ss":30,"used":true},{"PRN":6,"el":15,"az":280,"ss":28,"used":false},{"PRN":2,"el":9,"az":316,"ss":34,"used":true},{"PRN":27,"el":1,"az":118,"ss":0,"used":false}]}
{"class":"TPV","device":"/dev/ttyUSB0","mode":3,"time":"2016-12-07T02:00:24.000Z","ept":0.005,"lat":47.423521667,"lon":-122.249913333,"alt":9.500,"epx":12.172,"epy":21.206,"epv":33.120,"track":93.5800,"speed":2.130,"climb":-0.100,"eps":42.41,"epc":66.24}
{"class":"TPV","device":"/dev/ttyUSB0","mode":3,"time":"2016-12-07T02:00:25.000Z","ept":0.005,"lat":47.423520000,"lon":-122.249893333,"alt":9.400,"epx":12.172,"epy":21.206,"epv":33.120,"track":93.5800,"speed":0.098,"climb":-0.100,"eps":42.41,"epc":66.24}
{"class":"TPV","device":"/dev/ttyUSB0","mode":3,"time":"2016-12-07T02:00:26.000Z","ept":0.005,"lat":47.423520000,"lon":-122.249886667,"alt":9.300,"epx":12.172,"epy":21.206,"epv":32.890,"track":93.5800,"speed":0.010,"climb":-0.100,"eps":42.41,"epc":66.01}
{"class":"TPV","device":"/dev/ttyUSB0","mode":3,"time":"2016-12-07T02:00:27.000Z","ept":0.005,"lat":47.423521667,"lon":-122.249885000,"alt":9.200,"epx":12.172,"epy":21.206,"epv":18.860,"track":93.5800,"speed":0.046,"climb":-0.100,"eps":42.41,"epc":51.75}
{"class":"TPV","device":"/dev/ttyUSB0","mode":3,"time":"2016-12-07T02:00:28.000Z","ept":0.005,"lat":47.423521667,"lon":-122.249875000,"alt":9.100,"epx":12.172,"epy":21.206,"epv":18.860,"track":93.5800,"speed":0.123,"climb":-0.100,"eps":42.41,"epc":37.72}
{"class":"SKY","device":"/dev/ttyUSB0","xdop":0.81,"ydop":1.41,"vdop":0.82,"tdop":1.60,"hdop":0.95,"gdop":3.10,"pdop":1.25,"satellites":[{"PRN":23,"el":80,"az":84,"ss":44,"used":true},{"PRN":9,"el":58,"az":300,"ss":40,"used":true},{"PRN":16,"el":51,"az":90,"ss":46,"used":true},{"PRN":26,"el":35,"az":56,"ss":41,"used":true},{"PRN":7,"el":34,"az":244,"ss":43,"used":true},{"PRN":138,"el":33,"az":160,"ss":37,"used":false},{"PRN":3,"el":31,"az":175,"ss":40,"used":true},{"PRN":22,"el":17,"az":168,"ss":29,"used":true},{"PRN":6,"el":15,"az":280,"ss":26,"used":false},{"PRN":2,"el":9,"az":316,"ss":36,"used":true},{"PRN":27,"el":1,"az":118,"ss":0,"used":false}]}
{"class":"TPV","device":"/dev/ttyUSB0","mode":3,"time":"2016-12-07T02:00:29.000Z","ept":0.005,"lat":47.423523333,"lon":-122.249855000,"alt":9.000,"epx":12.172,"epy":21.206,"epv":18.860,"track":93.5800,"speed":0.175,"climb":-0.100,"eps":42.41,"epc":37.72}
{"class":"TPV","device":"/dev/ttyUSB0","mode":3,"time":"2016-12-07T02:00:30.000Z","ept":0.005,"lat":47.423525000,"lon":-122.249833333,"alt":8.900,"epx":12.172,"epy":21.206,"epv":18.860,"track":93.5800,"speed":0.170,"climb":-0.100,"eps":42.41,"epc":37.72}
{"class":"TPV","device":"/dev/ttyUSB0","mode":3,"time":"2016-12-07T02:00:31.000Z","ept":0.005,"lat":47.423525000,"lon":-122.249815000,"alt":8.900,"epx":3.043,"epy":5.302,"epv":4.715,"track":93.5800,"speed":0.129,"climb":0.000,"eps":26.51,"epc":23.57}
{"class":"TPV","device":"/dev/ttyUSB0","mode":3,"time":"2016-12-07T02:00:32.000Z","ept":0.005,"lat":47.423525000,"lon":-122.249805000,"alt":8.800,"epx":3.043,"epy":5.302,"epv":4.715,"track":93.5800,"speed":0.041,"climb":-0.100,"eps":10.60,"epc":9.43}
{"class":"TPV","device":"/dev/ttyUSB0","mode":3,"time":"2016-12-07T02:00:33.000Z","ept":0.005,"lat":47.423525000,"lon":-122.249803333,"alt":8.700,"epx":3.043,"epy":5.302,"epv":4.715,"track":93.5800,"speed":0.000,"climb":-0.100,"eps":10.60,"epc":9.43}
{"class":"SKY","device":"/dev/ttyUSB0","xdop":0.81,"ydop":1.41,"vdop":0.82,"tdop":1.60,"hdop":0.95,"gdop":3.10,"pdop":1.25,"satellites":[{"PRN":23,"el":80,"az":85,"ss":44,"used":true},{"PRN":9,"el":58,"az":300,"ss":39,"used":true},{"PRN":16,"el":51,"az":90,"ss":46,"used":true},{"PRN":26,"el":35,"az":56,"ss":41,"used":true},{"PRN":7,"el":34,"az":244,"ss":43,"used":true},{"PRN":138,"el":33,"az":160,"ss":36,"used":false},{"PRN":3,"el":31,"az":175,"ss":40,"used":true},{"PRN":22,"el":17,"az":168,"ss":32,"used":true},{"PRN":6,"el":15,"az":280,"ss":26,"used":false},{"PRN":2,"el":9,"az":316,"ss":35,"used":true},{"PRN":27,"el":1,"az":118,"ss":0,"used":false}]}
{"class":"TPV","device":"/dev/ttyUSB0","mode":3,"time":"2016-12-07T02:00:34.000Z","ept":0.005,"lat":47.423523333,"lon":-122.249805000,"alt":8.500,"epx":3.043,"epy":5.302,"epv":4.715,"track":93.5800,"speed":0.000,"climb":-0.200,"eps":10.60,"epc":9.43}
{"class":"TPV","device":"/dev/ttyUSB0","mode":3,"time":"2016-12-07T02:00:35.000Z","ept":0.005,"lat":47.423523333,"lon":-122.249805000,"alt":8.400,"epx":3.043,"epy":5.302,"epv":4.715,"track":93.5800,"speed":0.000,"climb":-0.100,"eps":10.60,"epc":9.43}
{"class":"TPV","device":"/dev/ttyUSB0","mode":3,"time":"2016-12-07T02:00:36.000Z","ept":0.005,"lat":47.423523333,"lon":-122.249805000,"alt":8.400,"epx":3.043,"epy":5.302,"epv":4.715,"track":93.5800,"speed":0.005,"climb":0.000,"eps":10.60,"epc":9.43}
{"class":"TPV","device":"/dev/ttyUSB0","mode":3,"time":"2016-12-07T02:00:37.000Z","ept":0.005,"lat":47.423523333,"lon":-122.249803333,"alt":8.300,"epx":3.043,"epy":5.302,"epv":4.715,"track":93.5800,"speed":0.005,"climb":-0.100,"eps":10.60,"epc":9.43}
{"class":"TPV","device":"/dev/ttyUSB0","mode":3,"time":"2016-12-07T02:00:38.000Z","ept":0.005,"lat":47.423523333,"lon":-122.249800000,"alt":8.200,"epx":3.043,"epy":5.302,"epv":4.715,"track":93.5800,"speed":0.057,"climb":-0.100,"eps":10.60,"epc":9.43}
{"class":"SKY","device":"/dev/ttyUSB0","xdop":0.81,"ydop":1.41,"vdop":0.82,"tdop":1.60,"hdop":0.95,"gdop":3.10,"pdop":1.25,"satellites":[{"PRN":23,"el":80,"az":85,"ss":43,"used":true},{"PRN":9,"el":58,"az":300,"ss":39,"used":true},{"PRN":16,"el":51,"az":90,"ss":46,"used":true},{"PRN":26,"el":35,"az":55,"ss":41,"used":true},{"PRN":7,"el":34,"az":244,"ss":42,"used":true},{"PRN":138,"el":33,"az":160,"ss":36,"used":false},{"PRN":3,"el":31,"az":175,"ss":41,"used":true},{"PRN":22,"el":17,"az":168,"ss":38,"used":true},{"PRN":6,"el":15,"az":280,"ss":27,"used":false},{"PRN":2,"el":9,"az":316,"ss":33,"used":true},{"PRN":29,"el":1,"az":13,"ss":0,"used":false},{"PRN":27,"el":1,"az":118,"ss":0,"used":false}]}
{"class":"TPV","device":"/dev/ttyUSB0","mode":3,"time":"2016-12-07T02:00:39.000Z","ept":0.005,"lat":47.423523333,"lon":-122.249785000,"alt":8.200,"epx":3.043,"epy":5.302,"epv":4.715,"track":93.5800,"speed":0.154,"climb":0.000,"eps":10.60,"epc":9.43}
{"class":"TPV","device":"/dev/ttyUSB0","mode":3,"time":"2016-12-07T02:00:40.000Z","ept":0.005,"lat":47.423523333,"lon":-122.249755000,"alt":8.100,"epx":3.043,"epy":5.302,"epv":4.715,"track":91.6300,"speed":2.937,"climb":-0.100,"eps":10.60,"epc":9.43}
{"class":"TPV","device":"/dev/ttyUSB0","mode":3,"time":"2016-12-07T02:00:41.000Z","ept":0.005,"lat":47.423521667,"lon":-122.249705000,"alt":8.200,"epx":3.043,"epy":5.302,"epv":4.715,"track":88.5800,"speed":4.481,"climb":0.100,"eps":10.60,"epc":9.43}
{"class":"TPV","device":"/dev/ttyUSB0","mode":3,"time":"2016-12-07T02:00:42.000Z","ept":0.005,"lat":47.423528333,"lon":-122.249638333,"alt":8.200,"epx":3.043,"epy":5.302,"epv":8.223,"track":77.7800,"speed":5.587,"climb":0.000,"eps":10.60,"epc":12.94}
{"class":"TPV","device":"/dev/ttyUSB0","mode":3,"time":"2016-12-07T02:00:43.000Z","ept":0.005,"lat":47.423546667,"lon":-122.249563333,"alt":8.400,"epx":3.043,"epy":5.302,"epv":8.223,"track":61.8900,"speed":6.518,"climb":0.200,"epd":82.7865,"eps":10.60,"epc":16.45}
{"class":"SKY","device":"/dev/ttyUSB0","xdop":0.81,"ydop":1.41,"vdop":1.43,"tdop":1.60,"hdop":0.97,"gdop":3.10,"pdop":1.73,"satellites":[{"PRN":23,"el":80,"az":85,"ss":38,"used":true},{"PRN":9,"el":58,"az":300,"ss":39,"used":true},{"PRN":16,"el":51,"az":90,"ss":44,"used":true},{"PRN":26,"el":35,"az":55,"ss":41,"used":true},{"PRN":7,"el":34,"az":244,"ss":28,"used":true},{"PRN":138,"el":33,"az":160,"ss":39,"used":false},{"PRN":3,"el":31,"az":175,"ss":39,"used":true},{"PRN":22,"el":17,"az":168,"ss":37,"used":true},{"PRN":6,"el":15,"az":280,"ss":27,"used":false},{"PRN":2,"el":9,"az":316,"ss":23,"used":true},{"PRN":29,"el":1,"az":13,"ss":0,"used":false},{"PRN":27,"el":1,"az":118,"ss":0,"used":false}]}
{"class":"TPV","device":"/dev/ttyUSB0","mode":3,"time":"2016-12-07T02:00:44.000Z","ept":0.005,"lat":47.423583333,"lon":-122.249491667,"alt":8.400,"epx":3.043,"epy":5.302,"epv":8.223,"track":43.7100,"speed":7.331,"climb":0.000,"epd":76.1128,"eps":10.60,"epc":16.45}
{"class":"TPV","device":"/dev/ttyUSB0","mode":3,"time":"2016-12-07T02:00:45.000Z","ept":0.005,"lat":47.423640000,"lon":-122.249431667,"alt":8.700,"epx":3.043,"epy":5.302,"epv":8.223,"track":29.1500,"speed":8.288,"climb":0.300,"epd":68.6945,"eps":10.60,"epc":16.45}
{"class":"TPV","device":"/dev/ttyUSB0","mode":3,"time":"2016-12-07T02:00:46.000Z","ept":0.005,"lat":47.423715000,"lon":-122.249391667,"alt":9.000,"epx":3.043,"epy":5.302,"epv":8.223,"track":14.0400,"speed":9.383,"climb":0.300,"epd":61.7454,"eps":10.60,"epc":16.45}
{"class":"TPV","device":"/dev/ttyUSB0","mode":3,"time":"2016-12-07T02:00:47.000Z","ept":0.005,"lat":47.423803333,"lon":-122.249368333,"alt":9.300,"epx":3.043,"epy":5.302,"epv":8.223,"track":9.3500,"speed":10.716,"climb":0.300,"epd":55.9685,"eps":10.60,"epc":16.45}
{"class":"TPV","device":"/dev/ttyUSB0","mode":3,"time":"2016-12-07T02:00:48.000Z","ept":0.005,"lat":47.423910000,"lon":-122.249356667,"alt":9.600,"epx":3.043,"epy":5.302,"epv":8.223,"track":4.0300,"speed":12.280,"climb":0.300,"epd":48.0564,"eps":10.60,"epc":16.45}
{"class":"SKY","device":"/dev/ttyUSB0","xdop":0.81,"ydop":1.41,"vdop":1.43,"tdop":1.60,"hdop":0.97,"gdop":3.10,"pdop":1.73,"satellites":[{"PRN":23,"el":80,"az":85,"ss":34,"used":true},{"PRN":9,"el":58,"az":300,"ss":21,"used":true},{"PRN":16,"el":51,"az":90,"ss":41,"used":true},{"PRN":26,"el":35,"az":55,"ss":40,"used":true},{"PRN":7,"el":34,"az":244,"ss":39,"used":true},{"PRN":138,"el":33,"az":160,"ss":40,"used":false},{"PRN":3,"el":31,"az":175,"ss":38,"used":true},{"PRN":22,"el":17,"az":168,"ss":35,"used":true},{"PRN":6,"el":15,"az":280,"ss":26,"used":false},{"PRN":2,"el":9,"az":316,"ss":36,"used":true},{"PRN":29,"el":1,"az":13,"ss":0,"used":false},{"PRN":27,"el":1,"az":118,"ss":0,"used":false}]}
{"class":"TPV","device":"/dev/ttyUSB0","mode":3,"time":"2016-12-07T02:00:49.000Z","ept":0.005,"lat":47.424026667,"lon":-122.249345000,"alt":10.100,"epx":3.043,"epy":5.302,"epv":8.223,"track":5.6100,"speed":13.427,"climb":0.500,"epd":44.3702,"eps":10.60,"epc":16.45}
{"class":"TPV","device":"/dev/ttyUSB0","mode":3,"time":"2016-12-07T02:00:50.000Z","ept":0.005,"lat":47.424151667,"lon":-122.249325000,"alt":10.600,"epx":3.043,"epy":5.302,"epv":8.223,"track":7.3700,"speed":14.091,"climb":0.500,"epd":41.5384,"eps":10.60,"epc":16.45}
{"class":"TPV","device":"/dev/ttyUSB0","mode":3,"time":"2016-12-07T02:00:51.000Z","ept":0.005,"lat":47.424283333,"lon":-122.249305000,"alt":10.600,"epx":3.043,"epy":5.302,"epv":8.223,"track":4.8700,"speed":14.955,"climb":0.000,"epd":39.6235,"eps":10.60,"epc":16.45}
